name,type,address_1,address_2,city,state,zip,address_full,phone,email_1,email_2,email,website,abbreviation,name_short,lon,lat,coordinates,state_full,warden
CCM Salt Lake City - Community Corrections Office,Federal Prison,"324 South State Street, Ste 228",,Salt Lake City,UT,84111,"324 South State Street, Ste 228, Salt Lake City, UT 84111", (801) 524-4212, CSL/CCM@BOP.GOV , CSL,CCM@BOP.GOV ,http://www.bop.gov/DataSource/execute/dsFacilityAddressLoc?start=y&facilityCode=csl,csl,salt-lake-city,-111.889088,40.76185,"'-111.889088,40.76185'",,
CI Cibola County - Correctional Institution,Federal Prison,P.O. BOX 3540,,Milan,NM,87021,"P.O. BOX 3540, Milan, NM 87021",(505) 285-6991,CIB/GENERAL@BOP.GOV ,CIB,GENERAL@BOP.GOV ,http://www.bop.gov/DataSource/execute/dsFacilityAddressLoc?start=y&facilityCode=CIB,cib,cibola,-107.907943,35.179145,"'-107.907943,35.179145'",,
FCI Berlin - Federal Correctional Institution,Federal Prison,P.O. BOX 69,,Berlin,NH,3570,"P.O. BOX 69, Berlin, NH 3570",(603) 342-4000,BER/EXECASSISTANT@BOP.GOV ,BER,EXECASSISTANT@BOP.GOV ,http://www.bop.gov/locations/institutions/ber/index.jsp,ber,berlin,-71.134608,44.521147,"'-71.134608,44.521147'",,
FCI Butner Medium I - Federal Correctional Institution,Federal Prison,P.O. BOX 1000,,Butner,NC,27509,"P.O. BOX 1000, Butner, NC 27509",(919) 575-4541,BUF/EXECASSISTANT@BOP.GOV ,BUF,EXECASSISTANT@BOP.GOV ,http://www.bop.gov/locations/institutions/but/index.jsp,but,butner,-78.80647,36.145909,"'-78.80647,36.145909'",,
FCI Cumberland - Federal Correctional Institution,Federal Prison,14601 Burbridge Road SE,,Cumberland,MD,21502,"14601 Burbridge Road SE, Cumberland, MD 21502",(301) 784-1000,CUM/EXECASSISTANT@BOP.GOV ,CUM,EXECASSISTANT@BOP.GOV ,http://www.bop.gov/locations/institutions/cum/index.jsp,cum,cumberland,-78.762928,39.596141,"'-78.762928,39.596141'",,
FCI Danbury- Federal Correctional Institute,Federal Prison,Route 37,,Danbury,CT,6811,"Route 37, Danbury, CT 6811",(203) 743-6471,DAN/EXECASSISTANT@BOP.GOV ,DAN,EXECASSISTANT@BOP.GOV ,http://www.bop.gov/locations/institutions/dan/index.jsp,dan,danbury,-73.468436,41.43676,"'-73.468436,41.43676'",,
FCI Edgefield- Federal Correctional Institution,Federal Prison,P.O. BOX 723,,Edgefield,SC,29824,"P.O. BOX 723, Edgefield, SC 29824",(803) 637-1500,EDG/EXECASSISTANT@BOP.GOV ,EDG,EXECASSISTANT@BOP.GOV ,http://www.bop.gov/locations/institutions/edg/index.jsp,edg,edgefield,-81.91641,33.758073,"'-81.91641,33.758073'",,
FCI El Reno - Federal Correctional Institution,Federal Prison,P.O. BOX 1000,,El Reno,OK,73036,"P.O. BOX 1000, El Reno, OK 73036",(405) 262-4875,ERE/EXECASSISTANT@BOP.GOV,ERE,EXECASSISTANT@BOP.GOV,http://www.bop.gov/locations/institutions/ere/index.jsp,ere,el-reno,-98.004645,35.533727,"'-98.004645,35.533727'",,
FCI Elkton - Federal Correctional Institution,Federal Prison,P.O. BOX 129,,Lisbon,OH,44432,"P.O. BOX 129, Lisbon, OH 44432",(330) 420-6200,ELK/EXECASSISTANT@BOP.GOV ,ELK,EXECASSISTANT@BOP.GOV ,http://www.bop.gov/locations/institutions/elk/index.jsp,elk,elkton,-80.705295,40.772446,"'-80.705295,40.772446'",,
FCI Englewood - Federal Correctional Institute,Federal Prison,9595 West Quincy Avenue,,Littleton,CO,80123,"9595 West Quincy Avenue, Littleton, CO 80123",(303) 763-4300,ENG/EXECASSISTANT@BOP.GOV ,ENG,EXECASSISTANT@BOP.GOV ,http://www.bop.gov/locations/institutions/eng/index.jsp,eng,englewood,-105.105722,39.641336,"'-105.105722,39.641336'",,
FCI Fairton - Federal Correctional Institution,Federal Prison,P.O. BOX 280,,Fairton,NJ,8320,"P.O. BOX 280, Fairton, NJ 8320",(856) 453-1177,FAI/EXECASSISTANT@BOP.GOV ,FAI,EXECASSISTANT@BOP.GOV ,http://www.bop.gov/locations/institutions/fai/index.jsp,fai,fairton,-75.160675,39.385499,"'-75.160675,39.385499'",,
FCI Forrest City - Medium Federal Correctional Institution,Federal Prison,PO BOX 7000,,Forrest City,AR,72336,"PO BOX 7000, Forrest City, AR 72336",(870) 494-4200,FOM/EXECASSISTANT@BOP.GOV ,FOM,EXECASSISTANT@BOP.GOV ,http://www.bop.gov/locations/institutions/fom/index.jsp,fom,forrest-city,-90.803076,34.982015,"'-90.803076,34.982015'",,
FCI Memphis - Federal Corrections Institute,Federal Prison,1101 John A Denie Road,,Memphis,TN,38134,"1101 John A Denie Road, Memphis, TN 38134",(901) 372-2269,MEM/EXECASSISTANT@BOP.GOV ,MEM,EXECASSISTANT@BOP.GOV ,http://www.bop.gov/locations/institutions/mem/index.jsp,mem,memphis,-89.866972,35.155996,"'-89.866972,35.155996'",,
FCI Milan - Federal Correctional Institution,Federal Prison,P.O. BOX 9999,,Milan,MI,48160,"P.O. BOX 9999, Milan, MI 48160",(734) 439-1511,MIL/EXECASSISTANT@BOP.GOV ,MIL,EXECASSISTANT@BOP.GOV ,http://www.bop.gov/locations/institutions/mil/index.jsp,mil,milan,-83.669375,42.094938,"'-83.669375,42.094938'",,
FCI Otisville - Federal Correctional Institution,Federal Prison,P.O. BOX 600,,Otisville,NY,10963,"P.O. BOX 600, Otisville, NY 10963",(845) 386-6700,OTV/EXECASSISTANT@BOP.GOV ,OTV,EXECASSISTANT@BOP.GOV ,http://www.bop.gov/locations/institutions/otv/index.jsp,otv,otisville,-74.527005,41.497049,"'-74.527005,41.497049'",,
FCI Oxford - Federal Correctional Institution,Federal Prison,P.O. BOX 500,,Oxford,WI,53952,"P.O. BOX 500, Oxford, WI 53952",(608) 584-5511, OXF/EXECASSISTANT@BOP.GOV , OXF,EXECASSISTANT@BOP.GOV ,http://www.bop.gov/locations/institutions/oxf/index.jsp,oxf,oxford,-89.651398,43.86587,"'-89.651398,43.86587'",,
FCI Sheridan - Federal Correctional Institution,Federal Prison,P.O. BOX 800,,Sheridan,OR,97378,"P.O. BOX 800, Sheridan, OR 97378",(503) 843-4442,SHE/EXECASSISTANT@BOP.GOV ,SHE,EXECASSISTANT@BOP.GOV ,http://www.bop.gov/locations/institutions/she/index.jsp,she,sheridan,-123.380512,45.083993,"'-123.380512,45.083993'",,
FCI Talladega - Federal Correction Institute,Federal Prison,565 East Renfroe Road,,Talladega,AL,35160,"565 East Renfroe Road, Talladega, AL 35160", (256) 315-4100 ,TDG/EXECASSISTANT@BOP.GOV ,TDG,EXECASSISTANT@BOP.GOV ,http://www.bop.gov/locations/institutions/tdg/index.jsp,tdg,talladega,-86.14007,33.420356,"'-86.14007,33.420356'",,
FCI Yazoo City Medium - Federal Correctional Institution,Federal Prison,P.O. BOX 5666,,Yazoo City,MS,39194,"P.O. BOX 5666, Yazoo City, MS 39194",(662) 716-1020,YAZ/PUBLICINFORMATION@BOP.GOV ,YAZ,PUBLICINFORMATION@BOP.GOV ,http://www.bop.gov/locations/institutions/yam/index.jsp,yam,yazoo,-90.439683,32.884567,"'-90.439683,32.884567'",,
FDC Honolulu - Federal Detention Center,Federal Prison,P.O. BOX 30547,,HONOLULU,HI,96820,"P.O. BOX 30547, HONOLULU, HI 96820",(808) 838-4200,HON/EXECASSISTANT@BOP.GOV ,HON,EXECASSISTANT@BOP.GOV ,http://www.bop.gov/locations/institutions/hon/index.jsp,hon,honolulu,-157.928392,21.333418,"'-157.928392,21.333418'",,
FDC Seatac - Federal Detention Center,Federal Prison,P.O. BOX 13901,,Seattle,WA,98198,"P.O. BOX 13901, Seattle, WA 98198",(206) 870-5700,SET/EXECASSISTANT@BOP.GOV ,SET,EXECASSISTANT@BOP.GOV ,http://www.bop.gov/locations/institutions/set/index.jsp,set,seatac,-122.301297,47.421321,"'-122.301297,47.421321'",,
FMC Devens - Federal Medical Center,Federal Prison,P.O. BOX 880,,Ayer,MA,1432,"P.O. BOX 880, Ayer, MA 1432",(978) 796-1000,DEV/EXECASSISTANT@BOP.GOV ,DEV,EXECASSISTANT@BOP.GOV ,http://www.bop.gov/locations/institutions/dev/index.jsp,dev,devens,-71.620582,42.525194,"'-71.620582,42.525194'",,
FPC Duluth - Federal Prison Camp,Federal Prison,P.O. BOX 1400,,Duluth,MN,55814,"P.O. BOX 1400, Duluth, MN 55814",(218) 722-8634,DTH/EXECASSISTANT@BOP.GOV ,DTH,EXECASSISTANT@BOP.GOV ,http://www.bop.gov/locations/institutions/dth/index.jsp,dth,duluth,-92.196908,46.835609,"'-92.196908,46.835609'",,
FPC Yankton - Federal Prison Camp,Federal Prison,P.O. BOX 680,,Yankton,SD,57078,"P.O. BOX 680, Yankton, SD 57078",(605) 665-3262,YAN/EXECASSISTANT@BOP.GOV ,YAN,EXECASSISTANT@BOP.GOV ,http://www.bop.gov/locations/institutions/yan/index.jsp,yan,yankton,-97.389685,42.880037,"'-97.389685,42.880037'",,
MCFP Springfield - Medical Center/Federal Prisoners,Federal Prison,P.O. BOX 4000,,Springfield ,MO,65801,"P.O. BOX 4000, Springfield , MO 65801",(417) 862-7041, SPG/EXECASSISTANT@BOP.GOV , SPG,EXECASSISTANT@BOP.GOV ,http://www.bop.gov/locations/institutions/spg/index.jsp,spg,springfield,-93.325168,37.177938,"'-93.325168,37.177938'",,
"United States Penitentiary, Marion",Federal Prison,P.O. BOX 2000,,Marion,IL,62959,"P.O. BOX 2000, Marion, IL 62959",(618) 964-1441,MAR/EXECASSISTANT@BOP.GOV ,MAR,EXECASSISTANT@BOP.GOV ,http://www.bop.gov/locations/institutions/mar/index.jsp,mar,marion,-88.982807,37.663631,"'-88.982807,37.663631'",,
UPS Beaumont - U.S. Penitentiary,Federal Prison,P.O. BOX 26035,,Beaumont,TX,77720,"P.O. BOX 26035, Beaumont, TX 77720",(409) 727-8188,BMP/EXECASSISTANT@BOP.GOV ,BMP,EXECASSISTANT@BOP.GOV ,http://www.bop.gov/locations/institutions/bmp/index.jsp,bmp,beaumont,-94.079083,29.959945,"'-94.079083,29.959945'",,
USP  Hazelton - U.S. Penitentiary,Federal Prison,P.O. BOX 450,,Bruceton Mills,WV,26525,"P.O. BOX 450, Bruceton Mills, WV 26525",(304)379-5000,HAZ/EXECASSISTANT@BOP.GOV ,HAZ,EXECASSISTANT@BOP.GOV ,http://www.bop.gov/locations/institutions/haz/index.jsp,haz,hazelton,-79.495272,39.673707,"'-79.495272,39.673707'",,
USP Atlanta - U.S. Penitentiary,Federal Prison,601 McDonough Blvd. SE,,Atlanta,GA,30315,"601 McDonough Blvd. SE, Atlanta, GA 30315",(404) 635-5100,ATL/PUBLICINFORMATION@BOP.GOV ,ATL,PUBLICINFORMATION@BOP.GOV ,http://www.bop.gov/locations/institutions/atl/index.jsp,atl,atlanta,-84.368798,33.710575,"'-84.368798,33.710575'",,
USP Canaan - U.S. Penitentiary,Federal Prison,P.O. BOX 400,,Waymart,PA,18472,"P.O. BOX 400, Waymart, PA 18472",(570) 488-8000,CAA/EXECASSISTANT@BOP.GOV ,CAA,EXECASSISTANT@BOP.GOV ,http://www.bop.gov/locations/institutions/caa/index.jsp,caa,canaan,-75.421959,41.561643,"'-75.421959,41.561643'",,
USP Coleman I - U.S. Penitentiary,Federal Prison,P.O. BOX 1023,,Coleman,FL,33521,"P.O. BOX 1023, Coleman, FL 33521",(352) 689-6000,COA/PUBLICINFORMATION@BOP.GOV ,COA,PUBLICINFORMATION@BOP.GOV ,http://www.bop.gov/locations/institutions/cop/index.jsp,cop,coleman,-81.9984,28.764275,"'-81.9984,28.764275'",,
USP Leavenworth - U.S. Penitentiary,Federal Prison,P.O. BOX 1000,,Leavenworth  ,KS,66048,"P.O. BOX 1000, Leavenworth  , KS 66048",(913) 682-8700,LVN/EXECASSISTANT@BOP.GOV ,LVN,EXECASSISTANT@BOP.GOV ,http://www.bop.gov/locations/institutions/lvn/index.jsp,lvn,leavenworth,-94.935839,39.331379,"'-94.935839,39.331379'",,
USP Lee - U.S. Penitentiary,Federal Prison,P.O. BOX 900,,Jonesville,VA,24263,"P.O. BOX 900, Jonesville, VA 24263",(276) 546-0150,LEE/EXECASSISTANT@BOP.GOV,LEE,EXECASSISTANT@BOP.GOV,http://www.bop.gov/locations/institutions/lee/index.jsp,lee,lee,-83.002122,36.702661,"'-83.002122,36.702661'",,
USP McCreary - U.S. Penitentiary,Federal Prison,330 Federal Way,,Pine Knot,KY,42635,"330 Federal Way, Pine Knot, KY 42635",(606) 354-7000,MCR/EXECASSISTANT@BOP.GOV ,MCR,EXECASSISTANT@BOP.GOV ,http://www.bop.gov/locations/institutions/mcr/index.jsp,mcr,mc-creary,-84.387486,36.688549,"'-84.387486,36.688549'",,
USP POLLOCK U.S. PENITENTIARY,Federal Prison,1000 Airbase Road,,POLLOCK,LA,71467,"1000 Airbase Road, POLLOCK, LA 71467",(318) 561-5300,POL/EXECASSISTANT@BOP.GOV ,POL,EXECASSISTANT@BOP.GOV ,http://www.bop.gov/locations/institutions/pol/index.jsp,pol,pollock,-92.4413797,31.469546,"'-92.4413797,31.469546'",,
USP Terra Haute - U.S. Penitentiary,Federal Prison,4700 Bureau Road South,,Terre Haute,IN,47802,"4700 Bureau Road South, Terre Haute, IN 47802",(812) 244-4400,THA/EXECASSISTANT@BOP.GOV ,THA,EXECASSISTANT@BOP.GOV ,http://www.bop.gov/DataSource/execute/dsFacilityAddressLoc?start=y&facilityCode=thp,thp,terra-haute,-87.45529,39.407485,"'-87.45529,39.407485'",,
USP Tucson - U.S. Penitentiary,Federal Prison,South Wilmot Road,,Tucson,AZ,85706,"South Wilmot Road, Tucson, AZ 85706", (623) 465-9757 ,TCP/EXECASSISTANT@BOP.GOV ,TCP,EXECASSISTANT@BOP.GOV ,http://www.bop.gov/locations/institutions/tcp/index.jsp,tcp,tucson,-110.866596,32.083857,"'-110.866596,32.083857'",,
USP Victorville - U.S. Penitentiary,Federal Prison,530-5000 Air Expressway Blvd,,Victorville,CA,92394,"530-5000 Air Expressway Blvd, Victorville, CA 92394", (760) 530-5000,VIM/EXECASSISTANT@BOP.GOV ,VIM,EXECASSISTANT@BOP.GOV ,http://www.bop.gov/locations/institutions/vip/index.jsp,vip,victorville,-117.359004,34.568315,"'-117.359004,34.568315'",,